,City,Cloudiness,Country,Date,Humidity,Lat,Lng,Max Temperature,Wind Speed
0,marawi,100,PH,1561588620,94,8.0,124.29,77.0,5.99
1,new norfolk,0,AU,1561588620,86,-42.78,147.06,43.0,12.75
2,puerto ayora,20,EC,1561588385,61,-0.74,-90.35,80.6,23.04
3,lakatoro,100,VU,1561588621,79,-16.11,167.42,80.87,17.87
4,bethel,90,US,1561588621,82,60.79,-161.76,66.2,14.99
5,kuching,75,MY,1561588621,94,1.56,110.34,77.0,2.24
6,carnarvon,0,ZA,1561588621,42,-30.97,22.13,40.37,5.44
7,lasa,0,CY,1561588622,94,34.92,32.53,77.0,6.93
8,yellowknife,75,CA,1561588622,67,62.45,-114.38,64.0,19.46
9,nikolskoye,0,RU,1561588622,82,59.7,30.79,57.99,4.34
10,ushuaia,75,AR,1561588411,79,-54.81,-68.31,28.4,20.8
11,hermanus,0,ZA,1561588499,90,-34.42,19.24,55.99,5.01
12,samarai,63,PG,1561588622,90,-10.62,150.67,77.63,6.67
13,albany,75,US,1561588622,45,42.65,-73.75,84.2,10.29
14,vestmannaeyjar,100,IS,1561588622,97,63.44,-20.27,52.25,13.2
15,surt,0,LY,1561588623,88,31.21,16.59,75.83,4.12
16,dikson,100,RU,1561588437,94,73.51,80.55,33.71,17.11
17,lebu,75,ET,1561588623,67,8.96,38.73,62.6,4.7
18,codrington,75,AU,1561588623,100,-28.95,153.24,60.8,9.48
19,port blair,100,IN,1561588623,81,11.67,92.75,83.93,20.09
20,mataura,30,NZ,1561588450,81,-46.19,168.86,50.0,1.01
21,avarua,43,CK,1561588623,69,-21.21,-159.78,77.0,4.7
22,kasongo-lunda,6,CD,1561588624,60,-6.48,16.82,64.31,3.38
23,castrillon,75,ES,1561588624,82,43.4,-6.79,64.4,1.52
24,saint-philippe,75,CA,1561588624,65,45.36,-73.48,80.01,13.87
25,salinopolis,75,BR,1561588624,78,-0.61,-47.36,82.31,18.34
26,cape town,0,ZA,1561588624,93,-33.93,18.42,52.0,8.05
27,khatanga,0,RU,1561588624,41,71.98,102.47,53.15,8.97
28,hauterive,90,CA,1561588625,93,49.18,-68.27,68.0,11.41
29,saint-georges,20,CA,1561588625,65,46.12,-70.67,75.99,8.95
30,tuktoyaktuk,90,CA,1561588625,80,69.44,-133.03,39.2,18.34
31,faya,0,SA,1561588625,17,18.39,42.45,75.2,3.36
32,muros,20,ES,1561588625,93,42.77,-9.06,63.0,4.27
33,qaanaaq,13,GL,1561588476,68,77.48,-69.36,36.23,3.49
34,panjab,0,AF,1561588625,40,34.38,67.02,42.35,6.15
35,fairbanks,75,US,1561588571,20,64.84,-147.72,79.0,4.7
36,tuatapere,92,NZ,1561588626,81,-46.13,167.69,50.0,1.01
37,el campo,1,US,1561588626,58,29.2,-96.27,91.4,11.41
38,luderitz,0,NA,1561588626,62,-26.65,15.16,51.8,2.24
39,nome,75,US,1561588626,62,30.04,-94.42,91.4,6.93
40,east london,59,ZA,1561588626,58,-33.02,27.91,59.09,13.56
41,bambous virieux,75,MU,1561588626,94,-20.34,57.76,73.4,13.87
42,hilo,20,US,1561588512,51,19.71,-155.08,86.0,11.41
43,mar del plata,86,AR,1561588521,72,-46.43,-67.52,38.39,10.16
44,parthenay,0,FR,1561588627,54,46.65,-0.25,82.4,4.7
45,los llanos de aridane,75,ES,1561588627,68,28.66,-17.92,71.6,14.99
46,asosa,62,ET,1561588627,93,10.07,34.53,65.21,1.36
47,sawakin,0,SD,1561588627,55,19.1,37.33,87.8,4.7
48,cidreira,16,BR,1561588627,57,-30.17,-50.22,47.21,2.64
49,esperance,90,AU,1561588618,87,-33.86,121.89,55.4,14.99
50,yar-sale,63,RU,1561588627,74,66.83,70.83,46.13,4.18
51,ilulissat,20,GL,1561588627,75,69.22,-51.1,44.6,11.41
52,castro,90,CL,1561588474,93,-42.48,-73.76,46.4,11.41
53,rikitea,44,PF,1561588628,81,-23.12,-134.97,74.39,11.18
54,bilibino,45,RU,1561588628,37,68.06,166.44,59.27,10.49
55,enshi,83,CN,1561588628,86,30.29,109.48,66.29,4.9
56,bluff,10,AU,1561588628,65,-23.58,149.07,68.09,25.19
57,ribeira grande,94,PT,1561588420,75,38.52,-28.7,65.39,15.21
58,igarka,100,RU,1561588628,64,67.47,86.57,45.95,11.77
59,talnakh,0,RU,1561588628,57,69.49,88.39,44.6,8.95
60,souillac,0,FR,1561588629,62,45.6,-0.6,84.2,6.93
61,elk city,1,US,1561588629,46,35.41,-99.4,93.2,16.11
62,tasiilaq,100,GL,1561588629,93,65.61,-37.64,42.8,2.24
63,healdsburg,20,US,1561588629,49,38.61,-122.87,75.99,13.87
64,madang,100,CN,1561588629,97,35.32,102.79,42.53,5.64
65,liku,46,ID,1561588629,78,-0.73,119.89,82.13,7.83
66,buraydah,0,SA,1561588558,30,26.33,43.97,86.0,3.36
67,santiago,99,PH,1561588630,86,16.69,121.54,78.89,1.07
68,butaritari,83,KI,1561588630,77,3.07,172.79,83.39,13.22
69,upernavik,0,GL,1561588630,87,72.79,-56.15,34.25,11.05
70,saskylakh,100,RU,1561588603,75,71.97,114.09,52.25,17.45
71,busselton,25,AU,1561588630,46,-33.64,115.35,55.99,32.19
72,boca do acre,68,BR,1561588630,79,-8.76,-67.39,76.55,1.36
73,udachnyy,0,RU,1561588630,59,66.42,112.4,64.4,2.24
74,aasiaat,4,GL,1561588630,80,68.71,-52.87,40.73,5.37
75,jamestown,0,AU,1561588631,55,-33.21,138.6,58.37,16.89
76,alice springs,16,AU,1561588631,59,-23.7,133.88,33.8,5.82
77,punta arenas,0,CL,1561588631,80,-53.16,-70.91,30.2,8.05
78,sorong,100,ID,1561588631,83,-0.86,131.25,79.79,10.49
79,coruripe,69,BR,1561588631,96,-10.12,-36.18,70.43,4.88
80,peniche,20,PT,1561588370,82,39.36,-9.38,64.4,5.82
81,cherskiy,22,RU,1561588631,33,68.75,161.3,66.29,11.12
82,hobart,0,AU,1561588556,86,-42.88,147.33,43.0,12.75
83,kapaa,90,US,1561588361,83,22.08,-159.32,78.8,13.87
84,leo,2,BF,1561588632,69,11.1,-2.1,80.69,7.2
85,clyde river,40,CA,1561588632,80,70.47,-68.59,41.0,14.99
86,nuuk,75,GL,1561588632,93,64.17,-51.74,48.2,13.87
87,atuona,0,PF,1561588632,77,-9.8,-139.03,80.51,16.91
88,bredasdorp,0,ZA,1561588632,93,-34.53,20.04,55.99,2.24
89,georgetown,40,GY,1561588427,78,6.8,-58.16,84.2,6.93
90,brownsville,1,US,1561588624,66,25.91,-97.49,91.4,16.11
91,necochea,37,AR,1561588634,54,-38.55,-58.74,46.99,11.99
92,bandarbeyla,88,SO,1561588634,64,9.49,50.81,78.53,28.01
93,tabou,99,CI,1561588634,94,4.42,-7.36,73.49,4.52
94,sola,100,TZ,1561588634,65,-3.17,33.8,69.17,2.46
95,skjervoy,100,NO,1561588634,92,70.03,20.97,46.13,21.3
96,beringovskiy,91,RU,1561588634,75,63.05,179.32,52.97,4.07
97,sault sainte marie,1,CA,1561588634,47,46.49,-84.36,77.0,10.29
98,hasaki,75,JP,1561588635,88,35.73,140.83,77.0,6.93
99,biak,100,ID,1561588635,95,-0.91,122.88,66.11,4.18
100,point pedro,72,LK,1561588635,80,9.82,80.23,84.11,21.83
101,sovetskaya,82,RU,1561588635,6,44.78,41.17,71.01,4.0
102,severo-kurilsk,100,RU,1561588635,97,50.68,156.12,41.09,14.92
103,ust-kuyga,0,RU,1561588635,24,70.0,135.55,79.97,2.37
104,savannakhet,100,TH,1561588635,87,16.57,104.76,78.89,11.63
105,lagoa,0,PT,1561588636,72,37.14,-8.45,68.0,8.05
106,okhotsk,9,RU,1561588636,37,59.36,143.24,73.13,14.43
107,port lincoln,31,AU,1561588636,61,-34.72,135.86,60.53,30.89
108,taltal,0,CL,1561588636,85,-25.41,-70.49,50.45,3.31
109,puri,9,ID,1561588636,79,-7.54,112.45,74.03,13.94
110,senno,100,RU,1561588636,87,57.76,27.95,57.2,4.47
111,mitsamiouli,20,KM,1561588637,83,-11.38,43.28,71.6,4.7
112,harlingen,90,NL,1561588423,82,53.18,5.41,60.01,12.75
113,vaini,95,IN,1561588637,88,15.34,74.49,77.99,4.38
114,umtata,96,ZA,1561588637,81,-31.59,28.78,51.8,2.24
115,dubrovka,0,RU,1561588637,82,59.85,30.93,57.99,4.34
116,leningradskiy,59,RU,1561588637,82,69.38,178.42,35.87,13.38
117,fortuna,90,US,1561588638,49,40.6,-124.16,69.8,11.41
118,kodiak,1,US,1561588638,54,39.95,-94.76,87.01,11.41
119,brae,90,GB,1561588638,87,60.4,-1.35,51.8,11.41
120,barrow,99,AR,1561588638,33,-38.31,-60.23,50.81,21.47
121,patacamaya,0,BO,1561588638,25,-17.23,-67.92,41.27,7.16
122,nordfjordeid,89,NO,1561588638,76,61.91,5.99,51.8,6.93
123,amga,0,RU,1561588638,39,60.89,131.98,72.23,2.37
124,vieques,20,PR,1561588639,74,18.43,-65.83,84.99,16.11
125,saint-pierre,0,FR,1561588639,78,48.95,4.24,80.6,11.41
126,saldanha,0,PT,1561588639,72,41.42,-6.55,65.03,1.03
127,deputatskiy,0,RU,1561588579,27,69.3,139.9,73.13,7.78
128,arraial do cabo,0,BR,1561588532,78,-22.97,-42.02,82.4,5.82
129,taoudenni,1,ML,1561588640,8,22.68,-3.98,98.15,11.25
130,paidha,79,UG,1561588640,95,2.42,30.99,59.45,3.33
131,cayenne,20,GF,1561588640,83,4.94,-52.33,78.8,4.7
132,pevek,10,RU,1561588640,85,69.7,170.27,33.89,15.05
133,nanortalik,100,GL,1561588640,99,60.14,-45.24,38.75,8.39
134,belmonte,0,PT,1561588640,89,40.36,-7.35,64.99,1.99
135,longyearbyen,40,NO,1561588640,70,78.22,15.63,42.8,14.99
136,sassandra,90,CI,1561588641,96,4.95,-6.09,71.51,2.17
137,gurun,75,MY,1561588641,88,5.82,100.48,80.6,3.36
138,faanui,1,PF,1561588641,73,-16.48,-151.75,80.51,6.55
139,ardakan,20,IR,1561588641,14,32.31,54.02,91.4,11.41
140,ancud,90,CL,1561588641,93,-41.87,-73.83,46.4,11.41
141,iqaluit,20,CA,1561588641,81,63.75,-68.52,44.6,16.11
142,santa marta,20,CO,1561588489,66,11.24,-74.21,89.6,32.64
143,la ronge,75,CA,1561588496,67,55.1,-105.3,62.6,9.17
144,fort wellington,85,GY,1561588642,95,6.4,-57.6,74.57,4.09
145,torata,75,EC,1561588642,83,-3.6,-79.89,89.6,9.17
146,kirakira,99,SB,1561588642,72,-10.46,161.92,83.21,1.21
147,vila franca do campo,20,PT,1561588642,77,37.72,-25.43,64.4,11.41
148,huarmey,12,PE,1561588642,87,-10.07,-78.15,63.23,14.61
149,port hardy,40,CA,1561588642,68,50.7,-127.42,64.4,6.93
150,sabang,99,PH,1561588642,81,13.8,121.11,80.51,6.67
151,hithadhoo,58,MV,1561588643,72,-0.6,73.08,84.11,8.81
152,san isidro,90,PH,1561588581,94,6.84,126.09,77.0,2.24
153,roald,86,NO,1561588644,93,62.58,6.12,51.8,3.36
154,airai,9,TL,1561588547,58,-8.93,125.41,73.67,3.36
155,thompson,90,CA,1561588445,67,55.74,-97.86,60.8,3.36
156,gold coast,18,AU,1561588644,93,-28.0,153.41,64.99,8.05
157,genhe,100,CN,1561588644,54,50.78,121.52,61.43,10.83
158,kokopo,100,PG,1561588645,55,-4.34,152.27,86.99,3.22
159,komsomolskiy,86,RU,1561588645,84,67.55,63.78,40.73,5.28
160,labuhan,8,ID,1561588645,77,-2.54,115.51,77.09,1.01
161,acapulco,20,MX,1561588623,70,16.86,-99.88,87.8,6.93
162,alofi,75,NU,1561588570,73,-19.06,-169.92,77.0,14.99
163,scottsbluff,1,US,1561588645,79,41.87,-103.67,91.4,16.11
164,coquimbo,0,CL,1561588645,76,-29.95,-71.34,62.01,9.17
165,katsuura,75,JP,1561588645,100,33.93,134.5,75.2,25.28
166,alamogordo,1,US,1561588408,13,32.9,-105.96,98.6,14.99
167,rabo de peixe,20,PT,1561588530,77,37.8,-25.58,64.4,11.41
168,sao filipe,0,CV,1561588646,85,14.9,-24.5,74.39,22.53
169,fukuma,75,JP,1561588646,88,33.77,130.47,75.99,12.75
170,cape coast,52,GH,1561588646,90,5.11,-1.24,76.19,9.15
171,beloha,0,MG,1561588646,84,-25.17,45.06,65.21,11.52
172,shingu,100,JP,1561588646,97,33.72,135.99,67.73,6.31
173,panama city,1,US,1561588502,59,30.16,-85.65,97.0,11.41
174,grand gaube,75,MU,1561588646,94,-20.01,57.66,73.4,13.87
175,san andres,100,PH,1561588647,87,13.32,122.68,80.15,6.2
176,novorozhdestvenskaya,9,RU,1561588647,55,45.87,39.95,68.09,8.95
177,jardim,41,BR,1561588647,86,-21.48,-56.15,57.29,0.74
178,mackay,90,CA,1561588647,67,53.65,-115.58,62.6,3.36
179,mosetse,9,BW,1561588647,71,-20.64,26.64,57.29,8.77
180,geraldton,75,CA,1561588648,41,49.72,-86.95,75.2,14.99
181,puerto carreno,20,CO,1561588648,59,6.19,-67.49,89.6,4.7
182,puerto baquerizo moreno,40,EC,1561588648,78,-0.9,-89.6,77.0,17.22
183,russell,1,US,1561588648,32,38.9,-98.86,95.0,16.11
184,laguna,75,BZ,1561588648,74,16.17,-88.94,86.0,9.17
185,berlevag,0,NO,1561588648,81,70.86,29.09,48.2,13.87
186,norman wells,40,CA,1561588649,41,65.28,-126.83,59.0,8.05
187,wyndham,90,GB,1561588649,87,51.61,-3.54,62.01,19.46
188,victoria,75,BN,1561588555,94,5.28,115.24,78.8,13.0
189,trat,100,TH,1561588649,75,12.25,102.51,82.99,9.44
190,ust-ilimsk,65,RU,1561588649,54,57.96,102.73,68.45,6.73
191,grand-santi,100,GF,1561588649,98,4.27,-54.38,72.23,1.83
192,baykit,83,RU,1561588424,51,61.68,96.39,71.33,2.71
193,atikokan,64,CA,1561588650,41,48.76,-91.62,75.83,9.91
194,presidente epitacio,100,BR,1561588447,96,-21.76,-52.12,64.13,3.69
195,port alfred,81,ZA,1561588650,87,-33.59,26.89,60.01,7.0
196,mahebourg,75,MU,1561588624,94,-20.41,57.7,73.4,13.87
197,port elizabeth,1,US,1561588650,45,39.31,-74.98,91.0,8.05
198,okha,97,RU,1561588650,91,53.59,142.95,43.43,17.11
199,bathsheba,20,BB,1561588650,74,13.22,-59.52,82.4,17.22
200,kiama,20,AU,1561588650,100,-34.67,150.86,61.0,5.82
201,cachoeira do sul,0,BR,1561588650,66,-30.05,-52.89,43.07,2.95
202,williams lake,75,CA,1561588651,82,52.13,-122.14,55.4,5.82
203,pasuruan,1,ID,1561588651,77,-7.64,112.91,73.85,1.05
204,avera,1,US,1561588651,51,33.19,-82.53,90.0,4.7
205,tiksi,3,RU,1561588651,39,71.64,128.87,68.09,10.6
206,codigoro,0,IT,1561588651,94,44.83,12.11,81.0,3.36
207,luneville,0,FR,1561588651,73,48.6,6.5,78.8,6.73
208,drezdenko,5,PL,1561588651,94,52.84,15.83,64.13,13.06
209,santa isabel do rio negro,18,BR,1561588651,98,-0.41,-65.02,74.93,3.15
210,lucea,20,JM,1561588652,70,18.44,-78.17,86.0,18.34
211,baymak,16,RU,1561588652,97,52.6,58.31,42.35,4.92
212,saint anthony,1,US,1561588652,28,43.97,-111.68,82.4,6.93
213,egvekinot,100,RU,1561588652,89,66.32,-179.17,39.47,16.93
214,chuy,36,UY,1561588652,78,-33.69,-53.46,45.41,8.01
215,narsaq,100,GL,1561588652,93,60.91,-46.05,48.2,6.93
216,nioro,0,GM,1561588652,62,13.79,-15.05,79.79,13.35
217,ginir,10,ET,1561588653,96,7.14,40.71,57.47,5.99
218,parrita,40,CR,1561588653,60,9.52,-84.33,78.8,19.46
219,chiredzi,0,ZW,1561588653,86,-21.05,31.67,53.87,2.06
220,natal,20,BR,1561588653,78,-5.81,-35.21,77.0,10.29
221,cananea,1,MX,1561588653,13,30.98,-110.3,95.0,10.29
222,tongchuan,90,CN,1561588653,100,34.9,108.95,69.8,6.71
223,innisfail,100,AU,1561588653,88,-17.52,146.03,63.0,5.01
224,altay,100,CN,1561588654,50,47.83,88.13,53.87,4.36
225,kaitangata,0,NZ,1561588654,69,-46.28,169.85,48.99,3.0
226,chokurdakh,0,RU,1561588654,32,70.62,147.9,65.57,13.65
227,suntar,33,RU,1561588654,56,62.16,117.65,73.13,2.04
228,ankang,97,CN,1561588654,84,32.73,108.99,70.97,2.98
229,dolores,34,UY,1561588654,73,-33.53,-58.22,48.29,12.33
230,cuitlahuac,40,MX,1561588481,74,18.82,-96.72,86.0,8.05
231,baoying,86,CN,1561588654,99,33.24,119.31,82.0,4.61
232,lompoc,1,US,1561588655,56,34.64,-120.46,73.0,14.99
233,cockburn town,51,TC,1561588655,81,21.46,-71.14,81.77,15.9
234,raudeberg,98,NO,1561588655,76,61.99,5.14,51.8,6.93
235,agen,20,FR,1561588655,53,44.2,0.62,80.01,11.41
236,makinsk,100,KZ,1561588655,91,52.63,70.42,48.11,7.4
237,nantucket,1,US,1561588655,78,41.28,-70.1,73.99,5.82
238,quatre cocos,75,MU,1561588655,94,-20.21,57.76,73.4,13.87
239,bilma,74,NE,1561588656,31,18.69,12.92,85.91,8.41
240,safranbolu,52,TR,1561588656,96,41.25,32.69,63.95,0.54
241,sekoma,36,BW,1561588656,83,-24.51,23.93,54.23,14.88
242,kavaratti,97,IN,1561588656,77,10.57,72.64,82.85,15.41
243,slave lake,40,CA,1561588656,52,55.28,-114.77,66.2,4.7
244,sumenep,16,ID,1561588656,84,-7.02,113.87,75.29,4.29
245,phillipsburg,1,US,1561588657,36,39.76,-99.32,91.4,18.34
246,gavle,39,SE,1561588657,98,60.67,17.14,55.0,5.01
247,ambon,0,FR,1561588589,88,47.55,-2.56,77.0,11.41
248,bankura,100,IN,1561588657,65,23.24,87.07,86.63,12.57
249,atar,4,MR,1561588657,12,20.52,-13.05,97.25,15.48
250,sungaipenuh,3,ID,1561588657,89,-2.08,101.38,71.87,3.02
251,anadyr,90,RU,1561588658,93,64.73,177.51,44.6,20.13
252,tiarei,75,PF,1561588658,70,-17.53,-149.33,84.2,10.29
253,syracuse,1,US,1561588615,47,43.05,-76.15,82.4,11.41
254,juneau,75,US,1561588658,53,58.3,-134.42,75.2,12.75
255,baruun-urt,21,MN,1561588658,54,46.68,113.28,69.89,19.04
256,kruisfontein,20,ZA,1561588658,88,-34.0,24.73,53.15,5.93
257,cabo san lucas,5,MX,1561588407,17,22.89,-109.91,93.99,14.99
258,ballina,0,IE,1561588658,76,54.11,-9.15,57.2,12.75
259,cerrito,75,CO,1561588659,73,6.84,-72.7,77.0,5.82
260,tornio,0,FI,1561588659,100,61.12,27.27,57.2,2.64
261,chifeng,100,CN,1561588384,45,42.27,118.96,76.37,7.27
262,altus,40,US,1561588659,36,34.64,-99.33,93.2,18.34
263,manggar,55,ID,1561588659,88,-2.88,108.27,78.89,3.74
264,shudayag,33,RU,1561588659,61,63.53,53.61,49.91,2.21
265,las vegas,20,US,1561588360,10,36.17,-115.15,98.6,11.41
266,awbari,0,LY,1561588659,18,26.59,12.77,89.33,14.65
267,porto novo,20,BR,1561588660,73,-23.68,-45.44,69.8,9.17
268,aklavik,40,CA,1561588660,46,68.22,-135.01,53.6,4.7
269,agirish,46,RU,1561588660,68,61.92,63.02,46.85,2.53
270,manokwari,100,ID,1561588660,63,-0.87,134.08,80.15,2.37
271,yagoua,83,CM,1561588660,60,10.34,15.23,82.31,9.26
272,umm kaddadah,42,SD,1561588660,36,13.6,26.69,87.35,10.04
273,sao miguel do araguaia,0,BR,1561588616,47,-13.28,-50.16,73.49,2.62
274,mehran,0,IR,1561588660,17,33.12,46.17,77.0,4.7
275,catuday,97,PH,1561588661,75,16.29,119.81,85.91,16.31
276,kudahuvadhoo,90,MV,1561588661,72,2.67,72.89,82.49,2.04
277,piacabucu,37,BR,1561588661,84,-10.41,-36.43,76.55,9.66
278,pangai,75,TO,1561588661,83,-19.8,-174.35,75.2,13.87
279,nacozari,0,MX,1561588661,28,25.34,-108.26,100.0,8.01
280,santiago del estero,0,AR,1561588661,38,-27.8,-64.26,50.99,9.15
281,tilichiki,99,RU,1561588661,63,60.47,166.1,54.05,5.93
282,maniitsoq,70,GL,1561588661,73,65.42,-52.9,50.09,4.74
283,talcher,83,IN,1561588662,76,20.95,85.21,84.11,0.83
284,tanete,26,ID,1561588662,78,-3.94,119.78,79.61,14.92
285,puerto leguizamo,20,CO,1561588662,90,-0.19,-74.78,74.75,2.75
286,praia da vitoria,40,PT,1561588662,77,38.73,-27.07,64.99,15.57
287,polunochnoye,74,RU,1561588662,74,60.87,60.43,44.87,3.13
288,shenjiamen,52,CN,1561588662,92,29.96,122.3,72.77,1.83
289,constantine,0,DZ,1561588663,33,36.36,6.61,77.0,2.24
290,port hedland,83,AU,1561588663,87,-20.31,118.58,53.6,3.36
291,tiznit,0,MA,1561588663,88,29.7,-9.73,66.83,18.81
292,camacha,20,PT,1561588663,72,33.08,-16.33,68.0,10.29
293,jutai,62,BR,1561588663,97,-1.71,-47.89,73.67,3.06
294,maningrida,32,AU,1561588663,64,-12.05,134.23,70.97,8.88
295,kahului,90,US,1561588663,100,20.89,-156.47,82.4,11.41
296,ahipara,0,NZ,1561588663,66,-35.17,173.16,56.03,15.59
297,umm lajj,0,SA,1561588664,64,25.02,37.27,85.73,12.21
298,mbaiki,50,CF,1561588664,93,3.87,17.99,68.09,1.81
299,te anau,7,NZ,1561588664,78,-45.41,167.72,45.05,0.6
300,tessalit,9,ML,1561588664,13,20.2,1.01,91.85,9.53
301,manga,40,PK,1561588664,57,31.31,74.05,78.8,5.82
302,pangnirtung,20,CA,1561588664,70,66.15,-65.72,46.4,5.82
303,mwingi,23,KE,1561588664,91,-0.93,38.07,62.33,5.61
304,cuamba,0,MZ,1561588665,94,-14.8,36.54,57.65,6.71
305,lundazi,0,ZM,1561588665,65,-12.29,33.17,57.11,9.31
306,nabire,94,ID,1561588665,86,-3.36,135.5,75.47,4.59
307,le moule,0,GP,1561588665,83,16.33,-61.35,80.6,9.17
308,katsina,14,NG,1561588665,61,12.99,7.6,81.41,14.76
309,san patricio,0,PY,1561588665,75,-26.98,-56.83,44.33,5.14
310,guerrero negro,100,MX,1561588665,82,27.97,-114.04,64.49,13.0
311,arcata,75,US,1561588666,72,40.87,-124.08,69.8,11.41
312,formby,20,GB,1561588666,82,53.55,-3.07,60.01,8.05
313,robertsport,93,LR,1561588666,90,6.75,-11.37,76.91,7.9
314,banjar,73,ID,1561588666,94,-7.37,108.54,71.69,0.96
315,lagos,97,NG,1561588373,93,6.46,3.39,74.93,6.17
316,vostok,100,RU,1561588666,99,46.45,135.83,58.91,1.61
317,yulara,42,AU,1561588666,55,-25.24,130.99,35.6,5.82
318,samarina,100,RU,1561588667,87,57.89,27.81,57.2,4.47
319,rexburg,1,US,1561588667,28,43.82,-111.79,82.4,6.93
320,yele,100,CM,1561588667,71,10.73,13.59,77.99,5.7
321,ketchikan,1,US,1561588649,56,55.34,-131.65,80.6,16.11
322,sol-iletsk,66,RU,1561588667,87,51.16,55.0,52.43,4.21
323,shumikha,93,RU,1561588667,95,55.23,63.28,51.17,6.4
324,mwene-ditu,1,CD,1561588667,43,-7.01,23.45,67.91,4.83
325,mudgee,1,AU,1561588667,93,-32.6,149.59,46.4,6.93
326,madimba,75,CM,1561588668,94,4.42,9.93,75.2,3.36
327,shatalovo,92,RU,1561588668,94,53.28,37.58,61.79,9.69
328,mumford,70,GH,1561588668,94,5.26,-0.76,73.67,4.0
329,lukovetskiy,20,RU,1561588668,76,64.29,41.92,55.4,2.24
330,lata,27,IN,1561588668,70,30.78,78.62,34.97,1.9
331,zemio,100,CF,1561588668,95,5.02,25.13,67.19,2.26
332,vardo,20,US,1561588668,38,39.62,-77.74,89.6,12.75
333,xinxiang,93,CN,1561588669,50,35.3,113.88,78.71,1.86
334,san cristobal,90,HN,1561588669,87,14.68,-86.92,69.53,10.45
335,port keats,31,AU,1561588669,34,-14.25,129.55,68.81,11.1
336,bara,99,NG,1561588669,89,10.41,10.6,74.39,5.93
337,banepa,75,NP,1561588669,94,27.63,85.52,69.8,3.36
338,pangody,100,RU,1561588669,68,65.85,74.49,46.85,14.25
339,kasane,0,BW,1561588670,63,-17.8,25.16,56.75,7.38
340,engenheiro beltrao,78,BR,1561588670,96,-23.8,-52.27,54.77,4.85
341,idrinskoye,85,RU,1561588670,95,54.37,92.14,54.95,2.93
342,dunedin,0,NZ,1561588439,64,-45.87,170.5,50.99,7.78
343,broome,75,GB,1561588670,87,52.47,1.45,57.99,8.05
344,abaza,75,RU,1561588670,82,52.65,90.1,54.05,2.24
345,yingcheng,97,CN,1561588670,100,30.93,113.57,77.0,6.71
346,eastbourne,3,GB,1561588670,93,54.52,-1.53,52.0,4.7
347,wukari,95,NG,1561588671,94,7.87,9.78,72.77,4.76
348,fallon,1,US,1561588671,30,46.84,-105.12,82.4,3.36
349,wajima,100,JP,1561588671,93,37.4,136.9,69.89,16.33
350,belyy yar,20,RU,1561588671,93,53.6,91.39,53.6,2.24
351,keningau,75,MY,1561588671,83,5.33,116.16,78.01,2.24
352,nago,0,IT,1561588671,69,45.88,10.89,84.0,3.36
353,oranjemund,0,ZA,1561588671,77,-28.55,16.43,54.95,8.28
354,calabozo,13,VE,1561588672,83,8.92,-67.43,76.55,3.0
355,honiara,20,SB,1561588672,79,-9.43,159.96,84.2,1.79
356,ponta do sol,78,BR,1561588590,57,-20.63,-46.0,66.47,4.43
357,college,75,US,1561588672,20,64.86,-147.8,77.0,4.7
358,thinadhoo,55,MV,1561588672,72,0.53,72.93,83.21,5.99
359,paita,0,PE,1561588672,290,-5.09,-81.11,62.6,14.99
360,karratha,91,AU,1561588515,53,-20.74,116.85,68.09,2.84
361,parkes,0,AU,1561588672,66,-33.14,148.18,55.99,1.99
362,sibolga,82,ID,1561588672,79,1.74,98.78,81.59,8.12
363,beipiao,96,CN,1561588673,46,41.8,120.76,76.19,5.82
364,tynset,69,NO,1561588673,81,62.28,10.78,44.6,9.17
365,walvis bay,52,NA,1561588673,87,-22.95,14.51,59.0,9.17
366,robertson,20,AU,1561588673,100,-34.59,150.59,52.0,5.82
367,pacific grove,1,US,1561588673,63,36.62,-121.92,77.0,11.41
368,garowe,57,SO,1561588673,56,8.41,48.48,79.43,28.68
369,inirida,73,CO,1561588490,95,3.87,-67.92,75.29,2.82
370,yokadouma,91,CM,1561588673,99,3.52,15.05,67.55,3.67
371,filadelfia,0,PY,1561588673,59,-22.35,-60.04,54.59,6.04
372,kholodnyy,82,RU,1561588674,36,62.72,147.95,61.97,12.15
373,voh,100,NC,1561588674,92,-20.95,164.69,70.79,15.39
374,henties bay,57,NA,1561588674,93,-22.12,14.28,55.99,5.99
375,lerwick,90,GB,1561588674,87,60.15,-1.15,51.8,16.11
376,bundaberg,75,AU,1561588674,88,-24.87,152.35,69.01,9.17
377,kasamwa,95,TZ,1561588674,78,-2.84,32.42,67.91,1.79
378,vancouver,20,CA,1561588520,56,49.26,-123.12,77.0,13.87
379,tutoia,20,BR,1561588674,88,-2.76,-42.27,80.6,5.82
380,aragarcas,40,BR,1561588595,45,-15.9,-52.25,82.4,1.97
381,thunder bay,75,CA,1561588675,53,48.41,-89.26,82.99,11.41
382,nova odesa,6,UA,1561588675,61,47.3,31.79,65.93,2.82
383,abha,0,SA,1561588675,17,18.22,42.5,75.2,3.36
384,newala,6,TZ,1561588675,87,-10.94,39.28,62.87,1.01
385,torbay,20,CA,1561588623,71,47.66,-52.73,54.0,5.82
386,nosy varika,13,MG,1561588533,92,-20.58,48.53,65.57,8.08
387,pisco,16,PE,1561588675,30,-13.71,-76.2,71.6,5.82
388,rock sound,0,BS,1561588675,63,24.9,-76.2,85.01,8.14
389,aguimes,20,ES,1561588675,68,27.91,-15.45,71.6,17.22
390,fort nelson,90,CA,1561588676,67,58.81,-122.69,60.8,8.05
391,laukaa,90,FI,1561588676,93,62.42,25.95,55.99,2.24
392,hamilton,20,CA,1561588414,44,43.26,-79.87,82.99,13.87
393,flin flon,75,CA,1561588676,67,54.77,-101.88,62.6,8.05
394,chaska,1,US,1561588598,39,44.79,-93.6,87.01,5.08
395,christchurch,8,NZ,1561588627,100,-43.53,172.64,50.0,8.52
396,saint george,40,GR,1561588676,61,39.45,22.34,80.01,1.25
397,dalby,20,AU,1561588676,77,-27.18,151.26,59.0,13.87
398,dingle,100,PH,1561588677,82,11.0,122.67,80.15,7.72
399,kodinsk,15,RU,1561588677,52,58.6,99.18,71.15,5.01
400,rock springs,1,US,1561588581,7,41.59,-109.2,82.4,17.22
401,floro,98,NO,1561588677,76,61.6,5.03,51.8,6.93
402,fukue,75,JP,1561588677,88,35.03,136.69,78.01,8.05
403,kloulklubed,90,PW,1561588677,94,7.04,134.26,78.8,10.29
404,nizhniy odes,21,RU,1561588677,62,63.64,54.86,50.27,3.67
405,sibu,75,MY,1561588677,94,2.29,111.83,75.2,3.36
406,adrar,0,DZ,1561588678,7,27.87,-0.29,96.8,8.05
407,zalesovo,0,RU,1561588678,85,54.0,84.74,58.19,3.69
408,strelka,37,RU,1561588678,65,58.08,93.03,67.01,4.34
409,dubai,33,AE,1561588420,30,25.27,55.3,98.6,5.82
410,upington,0,ZA,1561588678,45,-28.46,21.24,42.8,4.7
411,aykhal,0,RU,1561588678,59,65.95,111.51,64.4,2.24
412,westport,3,US,1561588678,45,41.14,-73.36,88.0,3.29
413,bezhta,70,RU,1561588679,84,42.13,46.13,48.65,4.9
414,adre,100,TD,1561588679,54,13.47,22.2,78.71,10.29
415,hirara,75,JP,1561588679,83,24.8,125.28,82.4,13.87
416,pacifica,75,US,1561588679,82,37.61,-122.49,70.0,10.29
417,sitka,49,US,1561588679,46,37.17,-99.65,91.0,17.0
418,paragould,75,US,1561588408,73,36.06,-90.5,89.01,9.17
419,francisco beltrao,51,BR,1561588679,97,-26.08,-53.05,50.81,2.75
420,caxito,0,BR,1561588679,78,-22.65,-42.51,82.4,5.82
421,mogadishu,18,SO,1561588456,86,2.04,45.34,73.85,10.71
422,rio gallegos,40,AR,1561588680,86,-51.62,-69.22,30.2,13.87
423,rio branco,0,BR,1561588680,66,-9.98,-67.82,84.2,3.36
424,antofagasta,75,CL,1561588625,71,-23.65,-70.4,57.2,9.17
425,barabai,0,ID,1561588680,80,-2.59,115.38,77.45,2.28
426,asyut,0,EG,1561588680,29,27.18,31.19,87.8,3.36
427,parana,75,BR,1561588680,66,-7.52,-72.89,84.2,4.7
428,garhi khairo,0,PK,1561588680,20,28.06,67.98,93.47,10.25
429,nurota,17,UZ,1561588681,33,40.56,65.69,73.4,9.17
430,yantal,0,RU,1561588681,55,56.85,105.25,66.83,5.66
431,ronne,0,FR,1561588681,83,48.45,0.83,77.0,11.41
432,binzhou,81,CN,1561588681,65,37.38,117.96,78.01,1.99
433,grand island,1,US,1561588495,48,40.92,-98.34,84.2,17.22
434,medowie,75,AU,1561588681,100,-32.73,151.85,55.0,5.82
435,provideniya,90,RU,1561588500,87,64.42,-173.23,53.6,13.42
436,patancheru,40,IN,1561588681,83,17.53,78.27,77.0,9.17
437,lufilufi,40,WS,1561588681,62,-13.87,-171.6,86.0,12.75
438,ilesha,100,NG,1561588681,99,7.14,5.26,71.87,3.24
439,paracuru,0,BR,1561588682,74,-3.41,-39.03,80.6,10.29
440,abu dhabi,12,AE,1561588682,56,24.47,54.37,95.0,2.24
441,sakassou,40,CI,1561588682,100,7.45,-5.29,77.0,4.7
442,lesnoye,36,RU,1561588682,60,51.57,42.77,61.0,1.01
443,el alto,0,BO,1561588682,12,-16.5,-68.19,50.0,10.29
444,dudinka,0,RU,1561588682,51,69.41,86.18,44.6,8.95
445,comodoro rivadavia,40,AR,1561588682,53,-45.87,-67.48,51.8,24.16
446,tucuman,0,PE,1561588683,40,-17.17,-70.89,51.53,2.42
447,ilhabela,5,BR,1561588557,86,-23.78,-45.36,72.95,7.85
448,gamboula,100,CF,1561588683,99,4.12,15.14,67.73,5.06
449,bintulu,75,MY,1561588683,94,3.17,113.03,77.0,3.36
450,constitucion,40,MX,1561588683,12,23.99,-104.67,87.01,19.46
451,krivodol,0,BA,1561588683,48,43.28,17.77,82.4,3.36
452,botou,84,CN,1561588683,42,38.08,116.55,85.19,8.61
453,sankt georgen,0,DE,1561588684,74,48.13,8.33,78.8,3.36
454,lewiston,90,US,1561588684,77,44.1,-70.21,73.0,3.36
455,benghazi,0,LY,1561588684,73,32.12,20.07,78.35,16.06
456,cape canaveral,40,US,1561588672,58,28.41,-80.6,91.99,5.82
457,khandyga,0,RU,1561588684,39,62.65,135.58,74.03,2.84
458,churapcha,0,RU,1561588684,36,62.0,132.43,72.59,3.74
459,tazovskiy,98,RU,1561588684,72,67.47,78.7,42.17,11.52
460,eirunepe,83,BR,1561588685,95,-6.66,-69.87,73.31,2.37
461,batagay,0,RU,1561588685,26,67.65,134.64,81.59,2.57
462,siva,20,GR,1561588685,74,35.21,25.04,80.01,11.41
463,nishihara,1,JP,1561588685,78,35.74,139.53,82.99,1.01
464,yangcun,98,CN,1561588685,90,29.98,118.17,79.0,2.64
465,ales,0,FR,1561588581,64,44.13,4.08,78.01,2.24
466,lavrentiya,100,RU,1561588685,98,65.58,-170.99,48.47,11.14
467,mandal,100,MN,1561588685,61,48.82,106.5,55.85,2.82
468,aksarka,100,RU,1561588686,68,66.56,67.8,47.57,5.64
469,kamaishi,100,JP,1561588686,52,39.28,141.86,70.61,5.73
470,assiniboia,54,CA,1561588686,34,49.63,-105.99,75.47,4.83
471,ziezmariai,75,LT,1561588686,73,54.8,24.45,75.2,18.34
472,inhambane,4,MZ,1561588686,95,-23.87,35.38,60.35,2.66
473,fare,0,PF,1561588686,73,-16.7,-151.02,80.33,6.64
474,oltu,18,TR,1561588686,97,40.55,42.0,56.39,2.15
475,kailua,75,US,1561588687,65,21.39,-157.74,82.4,10.29
476,port hawkesbury,99,CA,1561588687,51,45.62,-61.36,64.0,9.17
477,rapid valley,1,US,1561588629,69,44.06,-103.15,82.0,13.87
478,zumpango,75,MX,1561588687,72,19.56,-98.22,62.6,10.29
479,purpe,100,RU,1561588687,92,64.48,76.69,46.99,8.99
480,vila velha,0,BR,1561588687,74,-3.71,-38.6,80.6,10.29
481,santa rosa,20,US,1561588511,49,38.44,-122.71,75.99,13.87
482,kabo,94,CF,1561588689,95,7.69,18.62,70.07,1.01
483,longjiang,100,CN,1561588689,82,47.33,123.18,64.31,16.49
484,hofn,63,IS,1561588689,83,64.25,-15.21,44.33,13.0
485,oktyabrskoye,0,RU,1561588689,82,56.73,85.44,63.0,4.47
486,yenagoa,100,NG,1561588689,97,4.92,6.26,72.95,3.62
487,vanavara,8,RU,1561588689,50,60.35,102.28,72.23,2.89
488,oxford,90,GB,1561588690,87,51.75,-1.26,60.01,13.87
489,nanning,40,CN,1561588690,94,22.83,108.3,82.4,2.24
490,meulaboh,85,ID,1561588690,78,4.14,96.13,81.05,7.07
491,nanchang,87,CN,1561588690,85,28.68,115.89,77.63,2.04
492,qazanbulaq,75,AZ,1561588690,61,40.62,46.65,80.6,4.7
493,salalah,90,OM,1561588690,88,17.01,54.1,82.4,10.29
494,gorontalo,23,ID,1561588690,78,0.54,123.06,81.05,8.61
495,san vicente,75,SV,1561588691,59,13.64,-88.78,91.4,4.7
496,kavieng,89,PG,1561588691,73,-2.57,150.8,84.11,8.41
497,vidim,0,CZ,1561588691,61,50.47,14.53,82.4,6.93
498,itoman,75,JP,1561588691,94,26.12,127.67,80.6,6.93
499,yakeshi,100,CN,1561588692,80,49.28,120.73,61.43,15.86
500,saint-augustin,75,CA,1561588692,65,45.63,-73.98,80.01,5.82
501,sao joao da barra,0,BR,1561588420,83,-21.64,-41.05,75.2,4.7
502,edd,99,ER,1561588692,47,13.93,41.69,88.07,2.91
503,betanzos,40,ES,1561588692,82,43.28,-8.21,64.99,1.12
504,dhangadhi,0,NP,1561588692,57,28.7,80.57,77.81,6.46
505,riyadh,0,SA,1561588533,8,24.63,46.72,89.6,5.82
506,iracoubo,65,GF,1561588692,96,5.48,-53.21,74.57,5.48
507,camargo,11,MX,1561588693,12,27.69,-105.17,95.45,6.87
508,nemuro,89,JP,1561588693,92,43.32,145.57,52.61,1.59
509,mokhotlong,39,LS,1561588693,75,-29.29,29.06,31.19,7.87
510,halifax,75,CA,1561588407,82,44.65,-63.58,59.0,10.29
511,chopovychi,100,UA,1561588693,91,50.83,28.95,67.37,11.65
512,nidzica,5,PL,1561588693,95,53.36,20.43,65.57,12.3
513,aksu,0,KZ,1561588693,93,52.04,76.93,62.6,4.47
514,skowhegan,90,US,1561588442,88,44.77,-69.72,68.0,3.36
515,zyryanovsk,0,KZ,1561588694,75,49.74,84.27,54.77,2.53
516,altamira,20,BR,1561588694,83,-3.2,-52.21,82.4,2.24
517,naze,100,NG,1561588694,98,5.43,7.07,71.33,2.42
518,goderich,19,CA,1561588694,55,43.74,-81.71,78.01,11.99
519,gizo,0,IL,1561588694,61,31.8,34.94,77.0,4.7
520,saint-joseph,0,FR,1561588694,65,43.56,6.97,84.2,5.82
521,ahuimanu,75,US,1561588562,65,21.44,-157.84,82.4,10.29
522,sao paulo de olivenca,92,BR,1561588695,96,-3.38,-68.87,74.57,1.43
523,arlit,48,NE,1561588695,22,18.74,7.39,94.01,8.43
524,mount gambier,17,AU,1561588539,87,-37.83,140.78,48.2,10.29
525,lahaina,90,US,1561588695,100,20.87,-156.68,82.4,11.41
526,nasirabad,92,IN,1561588695,59,26.3,74.74,85.55,15.52
527,opuwo,14,NA,1561588695,80,-18.06,13.84,45.95,1.25
528,barrancas,0,CO,1561588696,46,10.96,-72.8,93.2,16.11
529,panzhihua,99,CN,1561588696,81,26.59,101.72,69.53,2.44
530,nivala,100,FI,1561588696,93,63.93,24.96,53.01,2.53
531,wasilla,1,US,1561588424,60,61.58,-149.44,73.0,4.7
532,kaputa,27,ZM,1561588696,63,-8.47,29.66,59.09,1.41
533,port arthur,75,US,1561588572,62,29.9,-93.93,91.4,6.93
534,daye,79,CN,1561588696,78,30.1,114.98,80.15,4.52
535,kupino,99,RU,1561588696,94,54.36,77.31,53.51,12.19
